<?xml version="1.0" encoding="UTF-8"?>
<kml xmlns="http://www.opengis.net/kml/2.2">
  <Document>
    <name>สถานีสายสีเหลือง</name>
    <Style id="icon-959-F4EB37-nodesc-normal">
      <IconStyle>
        <color>ff37ebf4</color>
        <scale>1.1</scale>
        <Icon>
          <href>http://www.gstatic.com/mapspro/images/stock/959-wht-circle-blank.png</href>
        </Icon>
      </IconStyle>
      <LabelStyle>
        <scale>0</scale>
      </LabelStyle>
      <BalloonStyle>
        <text><![CDATA[<h3>$[name]</h3>]]></text>
      </BalloonStyle>
    </Style>
    <Style id="icon-959-F4EB37-nodesc-highlight">
      <IconStyle>
        <color>ff37ebf4</color>
        <scale>1.1</scale>
        <Icon>
          <href>http://www.gstatic.com/mapspro/images/stock/959-wht-circle-blank.png</href>
        </Icon>
      </IconStyle>
      <LabelStyle>
        <scale>1.1</scale>
      </LabelStyle>
      <BalloonStyle>
        <text><![CDATA[<h3>$[name]</h3>]]></text>
      </BalloonStyle>
    </Style>
    <StyleMap id="icon-959-F4EB37-nodesc">
      <Pair>
        <key>normal</key>
        <styleUrl>#icon-959-F4EB37-nodesc-normal</styleUrl>
      </Pair>
      <Pair>
        <key>highlight</key>
        <styleUrl>#icon-959-F4EB37-nodesc-highlight</styleUrl>
      </Pair>
    </StyleMap>
    <Style id="line-F4EB37-4000-normal">
      <LineStyle>
        <color>ff37ebf4</color>
        <width>4</width>
      </LineStyle>
    </Style>
    <Style id="line-F4EB37-4000-highlight">
      <LineStyle>
        <color>ff37ebf4</color>
        <width>6</width>
      </LineStyle>
    </Style>
    <StyleMap id="line-F4EB37-4000">
      <Pair>
        <key>normal</key>
        <styleUrl>#line-F4EB37-4000-normal</styleUrl>
      </Pair>
      <Pair>
        <key>highlight</key>
        <styleUrl>#line-F4EB37-4000-highlight</styleUrl>
      </Pair>
    </StyleMap>
    <Placemark>
      <name>รถไฟฟ้าสายสีเหลือง</name>
      <description>สำโรง - ลาดพร้าว</description>
      <styleUrl>#line-F4EB37-4000</styleUrl>
      <LineString>
        <tessellate>1</tessellate>
        <coordinates>
          100.595493,13.645439,0
          100.60045,13.643714,0
          100.602037,13.642671,0
          100.603909,13.641316,0
          100.605766,13.639721,0
          100.608115,13.63774,0
          100.626934,13.627678,0
          100.641588,13.652552,0
          100.643905,13.66339,0
          100.645794,13.674352,0
          100.647606,13.696336,0
          100.643702,13.712732,0
          100.6422,13.72004,0
          100.641015,13.735598,0
          100.643614,13.746026,0
          100.645956,13.755037,0
          100.645972,13.755655,0
          100.645923,13.756299,0
          100.645809,13.757687,0
          100.645533,13.760811,0
          100.645625,13.763524,0
          100.645346,13.766022,0
          100.574995,13.805273,0
        </coordinates>
      </LineString>
    </Placemark>
    <Placemark>
      <name>สถานีรัชดา</name>
      <styleUrl>#icon-959-F4EB37-nodesc</styleUrl>
      <Point>
        <coordinates>
          100.574992,13.805276,0
        </coordinates>
      </Point>
    </Placemark>
    <Placemark>
      <name>สถานีภาวนา</name>
      <styleUrl>#icon-959-F4EB37-nodesc</styleUrl>
      <Point>
        <coordinates>
          100.583262,13.800658,0
        </coordinates>
      </Point>
    </Placemark>
    <Placemark>
      <name>สถานีโชคชัย 4</name>
      <styleUrl>#icon-959-F4EB37-nodesc</styleUrl>
      <Point>
        <coordinates>
          100.594216,13.794604,0
        </coordinates>
      </Point>
    </Placemark>
    <Placemark>
      <name>สถานีลาดพร้าว 71</name>
      <styleUrl>#icon-959-F4EB37-nodesc</styleUrl>
      <Point>
        <coordinates>
          100.607777,13.787065,0
        </coordinates>
      </Point>
    </Placemark>
    <Placemark>
      <name>สถานีลาดพร้าว 83</name>
      <styleUrl>#icon-959-F4EB37-nodesc</styleUrl>
      <Point>
        <coordinates>
          100.613281,13.783919,0
        </coordinates>
      </Point>
    </Placemark>
    <Placemark>
      <name>สถานีมหาดไทย</name>
      <styleUrl>#icon-959-F4EB37-nodesc</styleUrl>
      <Point>
        <coordinates>
          100.622706,13.778766,0
        </coordinates>
      </Point>
    </Placemark>
    <Placemark>
      <name>สถานีลาดพร้าว 101</name>
      <styleUrl>#icon-959-F4EB37-nodesc</styleUrl>
      <Point>
        <coordinates>
          100.629154,13.775056,0
        </coordinates>
      </Point>
    </Placemark>
    <Placemark>
      <name>สถานีบางกะปิ</name>
      <styleUrl>#icon-959-F4EB37-nodesc</styleUrl>
      <Point>
        <coordinates>
          100.641965,13.76795,0
        </coordinates>
      </Point>
    </Placemark>
    <Placemark>
      <name>สถานีลำสาลี</name>
      <styleUrl>#icon-959-F4EB37-nodesc</styleUrl>
      <Point>
        <coordinates>
          100.64557,13.762208,0
        </coordinates>
      </Point>
    </Placemark>
    <Placemark>
      <name>สถานีศรีกรีฑา</name>
      <styleUrl>#icon-959-F4EB37-nodesc</styleUrl>
      <Point>
        <coordinates>
          100.64536,13.75272,0
        </coordinates>
      </Point>
    </Placemark>
    <Placemark>
      <name>สถานีพัฒนาการ</name>
      <styleUrl>#icon-959-F4EB37-nodesc</styleUrl>
      <Point>
        <coordinates>
          100.641704,13.738358,0
        </coordinates>
      </Point>
    </Placemark>
    <Placemark>
      <name>สถานีกลันตัน</name>
      <styleUrl>#icon-959-F4EB37-nodesc</styleUrl>
      <Point>
        <coordinates>
          100.641723,13.7263,0
        </coordinates>
      </Point>
    </Placemark>
    <Placemark>
      <name>สถานีศรีนุช</name>
      <styleUrl>#icon-959-F4EB37-nodesc</styleUrl>
      <Point>
        <coordinates>
          100.643702,13.712732,0
        </coordinates>
      </Point>
    </Placemark>
    <Placemark>
      <name>สถานีศรีนครินทร์ 38</name>
      <styleUrl>#icon-959-F4EB37-nodesc</styleUrl>
      <Point>
        <coordinates>
          100.64661,13.700488,0
        </coordinates>
      </Point>
    </Placemark>
    <Placemark>
      <name>สถานีสวนหลวงร.9</name>
      <styleUrl>#icon-959-F4EB37-nodesc</styleUrl>
      <Point>
        <coordinates>
          100.647125,13.690522,0
        </coordinates>
      </Point>
    </Placemark>
    <Placemark>
      <name>สถานีศรีอุดมสุข</name>
      <styleUrl>#icon-959-F4EB37-nodesc</styleUrl>
      <Point>
        <coordinates>
          100.646084,13.677794,0
        </coordinates>
      </Point>
    </Placemark>
    <Placemark>
      <name>สถานีศรีเอี่ยม</name>
      <styleUrl>#icon-959-F4EB37-nodesc</styleUrl>
      <Point>
        <coordinates>
          100.644389,13.666176,0
        </coordinates>
      </Point>
    </Placemark>
    <Placemark>
      <name>สถานีศรีลาซาล</name>
      <styleUrl>#icon-959-F4EB37-nodesc</styleUrl>
      <Point>
        <coordinates>
          100.642383,13.65624,0
        </coordinates>
      </Point>
    </Placemark>
    <Placemark>
      <name>สถานีศรีแบริ่ง</name>
      <styleUrl>#icon-959-F4EB37-nodesc</styleUrl>
      <Point>
        <coordinates>
          100.63674,13.644465,0
        </coordinates>
      </Point>
    </Placemark>
    <Placemark>
      <name>สถานีศรีด่าน</name>
      <styleUrl>#icon-959-F4EB37-nodesc</styleUrl>
      <Point>
        <coordinates>
          100.628918,13.631015,0
        </coordinates>
      </Point>
    </Placemark>
    <Placemark>
      <name>สถานีศรีเทพา</name>
      <styleUrl>#icon-959-F4EB37-nodesc</styleUrl>
      <Point>
        <coordinates>
          100.625753,13.628304,0
        </coordinates>
      </Point>
    </Placemark>
    <Placemark>
      <name>สถานีทิพวัล</name>
      <styleUrl>#icon-959-F4EB37-nodesc</styleUrl>
      <Point>
        <coordinates>
          100.608598,13.637458,0
        </coordinates>
      </Point>
    </Placemark>
    <Placemark>
      <name>สถานีสำโรง</name>
      <styleUrl>#icon-959-F4EB37-nodesc</styleUrl>
      <Point>
        <coordinates>
          100.595493,13.645439,0
        </coordinates>
      </Point>
    </Placemark>
  </Document>
</kml>
